[{"place_id":"1fde36a0-7fd5-43b9-9d0d-d0a9cd83e0e9","name":"Witting Inc","address":"271 Einar Avenue","city":"Lake Sharon","state":"Arkansas","rank":0,"latitude":"-57.4187","longitude":"100.7543","modified_at":"2016-06-18T12:57:07.994Z"},{"place_id":"280efd88-22e0-4f1d-ba66-6a04e9fbcdc6","name":"Spencer - Dickens","address":"26186 Merritt Mission","city":"Port Enos","state":"Maine","rank":1,"latitude":"58.4852","longitude":"-14.1078","modified_at":"2016-05-30T04:28:07.994Z"},{"place_id":"e6a2b9e1-69f0-463d-8182-75c229cd0130","name":"Renner, Bogisich and Walker","address":"48836 Bauch Station","city":"Pourostown","state":"Texas","rank":2,"latitude":"32.3248","longitude":"-62.6479","modified_at":"2016-04-09T03:09:33.409Z"},{"place_id":"afedaf06-0fa4-481e-9cce-22fcaf954278","name":"Lemke Inc","address":"697 Everett Lock","city":"Cristobalside","state":"Virginia","rank":3,"latitude":"27.2495","longitude":"-38.6414","modified_at":"2016-10-14T00:58:51.968Z"},{"place_id":"00ab3b7a-6eee-4072-b662-ccff5c4de68b","name":"Ernser, Gottlieb and Dibbert","address":"353 Graham Mount","city":"Considineview","state":"Alaska","rank":4,"latitude":"20.6712","longitude":"91.9802","modified_at":"2016-07-12T20:29:21.459Z"},{"place_id":"97f80c1f-422f-4afc-b4f6-0107ee72d4ba","name":"Stoltenberg - Parisian","address":"5658 Nicola Parkway","city":"Hubertfort","state":"New York","rank":5,"latitude":"7.6619","longitude":"-145.7375","modified_at":"2016-07-20T06:50:43.780Z"},{"place_id":"5fd3ed8f-859f-43c6-8c88-cb2f39512cff","name":"Rogahn Group","address":"341 Berniece Loaf","city":"Lake Hallietown","state":"New York","rank":6,"latitude":"-38.6051","longitude":"46.8833","modified_at":"2016-05-21T18:02:01.924Z"},{"place_id":"54457ae4-1481-474f-9528-f11f5a3e3f7c","name":"Pouros, Ritchie and Cartwright","address":"74844 Casimer Forks","city":"New Natstad","state":"Mississippi","rank":7,"latitude":"23.7808","longitude":"-24.0886","modified_at":"2016-08-01T00:46:15.514Z"},{"place_id":"b6da94ae-2d18-490b-84d2-96d6adddbd56","name":"Hackett - Ratke","address":"85459 Collier Court","city":"Keelinghaven","state":"South Dakota","rank":8,"latitude":"45.2813","longitude":"-15.3900","modified_at":"2016-05-20T19:47:20.528Z"},{"place_id":"2114e305-e443-49e5-8059-033eb520bee5","name":"Schowalter Inc","address":"392 Nikolaus Burg","city":"Wymanview","state":"California","rank":9,"latitude":"-71.0569","longitude":"-118.3414","modified_at":"2016-01-26T17:20:01.002Z"}]
