[{"place_id":"1fde36a0-7fd5-43b9-9d0d-d0a9cd83e0e9","name":"Witting Inc","address":"271 Einar Avenue","city":"Lake Sharon","state":"Arkansas","rank":0,"latitude":"-57.4187","longitude":"100.7543","created_at":"2016-06-18T12:57:07.994Z"},{"place_id":"5154ecca-dfab-43d3-a776-f273c02906bf","name":"Effertz LLC","address":"0499 Boyle Stravenue","city":"New Kaylah","state":"Ohio","rank":1,"latitude":"19.4803","longitude":"144.5262","created_at":"2016-10-31T14:27:51.345Z"},{"place_id":"63a34351-485a-4ef6-ae03-51026a0a99cd","name":"Prohaska and Sons","address":"642 Darrin Shoal","city":"New Ryanmouth","state":"Louisiana","rank":2,"latitude":"68.0197","longitude":"-35.4122","created_at":"2016-09-14T18:55:42.718Z"},{"place_id":"1ca5e880-6924-4073-bba0-b0e706adb4bc","name":"Metz and Sons","address":"3438 Emard Green","city":"Krismouth","state":"New Hampshire","rank":3,"latitude":"23.7237","longitude":"-52.1354","created_at":"2016-03-31T04:11:39.029Z"},{"place_id":"1ffcbd62-b7b2-4bf5-9b5c-299c3a7d178d","name":"O'Keefe Group","address":"019 Nikolaus Landing","city":"New Reynastad","state":"Arkansas","rank":4,"latitude":"22.6007","longitude":"-40.3364","created_at":"2016-04-20T03:25:36.264Z"},{"place_id":"0a28e4c8-6d4e-48f6-9d50-6810eabed7eb","name":"Krajcik, Jast and Luettgen","address":"632 Lauren Circles","city":"Faeburgh","state":"North Carolina","rank":5,"latitude":"-14.0797","longitude":"56.5635","created_at":"2016-03-18T19:35:06.205Z"},{"place_id":"c3e62739-0cb2-4806-b5b1-03b47342986a","name":"Nolan, Sipes and Cassin","address":"2003 Lorine Forges","city":"South Anabelle","state":"Rhode Island","rank":6,"latitude":"-69.7310","longitude":"39.1049","created_at":"2016-05-09T04:43:22.267Z"},{"place_id":"f5b70c51-f2e7-46fb-962c-6de5cb250734","name":"Beatty - McDermott","address":"1311 Jacobs Square","city":"New Josieton","state":"Arkansas","rank":7,"latitude":"-84.5596","longitude":"71.0120","created_at":"2016-04-04T11:39:09.473Z"},{"place_id":"97a68076-fec3-430d-a206-1d362486590d","name":"Rippin Inc","address":"45495 Cummerata Creek","city":"Domenicachester","state":"Utah","rank":8,"latitude":"17.0747","longitude":"-56.1065","created_at":"2016-12-18T04:45:00.831Z"},{"place_id":"25ff1258-94ae-46d3-b4fb-9cf8ea841cdb","name":"Simonis - Kris","address":"439 Horacio Fords","city":"Lake Shannonmouth","state":"West Virginia","rank":9,"latitude":"-6.9560","longitude":"175.4755","created_at":"2016-12-12T06:30:57.381Z"}]
